[{"id":8,"name":"SMA Negeri 1","address":"Jl. Tugu Utara 1 Telp. (0341) 366454","category_id":1,"level_id":3,"latitude":"-7.9768003","longitude":"112.634881","created_at":"2019-01-07 02:30:31","updated_at":"2019-01-07 02:32:26","deleted_at":null},{"id":9,"name":"SMA Negeri 2","address":"Jl. Laks. Martadinata 84 Telp. (0341) 366311","category_id":1,"level_id":3,"latitude":"-7.9914777","longitude":"112.633719","created_at":"2019-01-07 02:35:16","updated_at":"2019-01-07 02:35:16","deleted_at":null},{"id":10,"name":"SMA Negeri 3","address":"Jl. Sultan Agung Utara 7 Telp. (0341) 324768","category_id":1,"level_id":3,"latitude":"-7.9758873","longitude":"112.6351461","created_at":"2019-01-07 02:38:03","updated_at":"2019-01-07 02:38:03","deleted_at":null},{"id":11,"name":"SMA Negeri 4","address":"Jl. Tugu Utara 1 Telp. (0341) 325267","category_id":1,"level_id":3,"latitude":"-7.9763827","longitude":"112.6345363","created_at":"2019-01-07 02:51:23","updated_at":"2019-01-07 02:51:23","deleted_at":null},{"id":12,"name":"SMA Negeri 5","address":"Jl. Tanimbar 24 Telp. (0341) 364580","category_id":1,"level_id":3,"latitude":"-7.9892626","longitude":"112.626296","created_at":"2019-01-07 02:55:30","updated_at":"2019-01-07 02:55:30","deleted_at":null},{"id":13,"name":"SMA Negeri 6","address":"Jl. May. Sungkono 58 Telp. (0341) 752036","category_id":1,"level_id":3,"latitude":"-8.0102323","longitude":"112.6433852","created_at":"2019-01-07 02:57:35","updated_at":"2019-01-07 02:57:35","deleted_at":null},{"id":14,"name":"SMA Negeri 7","address":"Jl. Cengger Ayam I\/14 Telp. (0341) 495256","category_id":1,"level_id":3,"latitude":"-7.945212","longitude":"112.628165","created_at":"2019-01-07 02:59:52","updated_at":"2019-01-07 04:06:58","deleted_at":null},{"id":15,"name":"SMA Negeri 8","address":"Jl. Veteran 37 Telp. (0341) 551096","category_id":1,"level_id":3,"latitude":"-7.956948","longitude":"112.6168457","created_at":"2019-01-07 03:02:38","updated_at":"2019-01-07 04:03:17","deleted_at":null},{"id":16,"name":"SMA Negeri 9","address":"Jl. Puncak Borobudur 1 Telp. (0341) 471855","category_id":1,"level_id":3,"latitude":"-7.9361111","longitude":"112.6252196","created_at":"2019-01-07 03:08:38","updated_at":"2019-01-07 04:04:40","deleted_at":null},{"id":17,"name":"SMA Negeri 10","address":"Jl. Danau Grati 1 Telp. (0341) 719300","category_id":1,"level_id":3,"latitude":"-7.9744871","longitude":"112.6601047","created_at":"2019-01-07 03:17:23","updated_at":"2019-01-07 04:06:51","deleted_at":null},{"id":18,"name":"SMA Negeri 11","address":"Jl. Pel. Bakahuni 1 Telp. (0341) 836330","category_id":1,"level_id":3,"latitude":"-8.0070023","longitude":"112.6101575","created_at":"2019-01-07 03:22:59","updated_at":"2019-01-07 04:12:27","deleted_at":null},{"id":19,"name":"SMA Negeri 12","address":"Jl. Pahlawan Balearjosari Telp. (0341) 400884","category_id":1,"level_id":3,"latitude":"-8.006346","longitude":"112.621095","created_at":"2019-01-07 03:28:02","updated_at":"2019-01-08 10:01:59","deleted_at":null},{"id":20,"name":"SMK Negeri 1","address":"Jl. Sonokembang Telp. (0341) 326630","category_id":1,"level_id":3,"latitude":"-8.0035169","longitude":"112.6268052","created_at":"2019-01-07 03:32:31","updated_at":"2019-01-07 03:52:32","deleted_at":null},{"id":21,"name":"SMK Negeri 2","address":"Jl. Veteran 17 Telp. (0341) 551504","category_id":1,"level_id":3,"latitude":"-7.956388","longitude":"112.615672","created_at":"2019-01-07 03:38:59","updated_at":"2019-01-07 04:15:41","deleted_at":null},{"id":22,"name":"SMK Negeri 3","address":"Jl. Surabaya 1 Telp. (0341) 551734","category_id":1,"level_id":3,"latitude":"-7.9667048","longitude":"112.6191937","created_at":"2019-01-07 03:42:16","updated_at":"2019-01-07 04:17:39","deleted_at":null},{"id":23,"name":"SMK Negeri 4","address":"Jl. Tanimbar 22 Telp. (0341) 353798","category_id":1,"level_id":3,"latitude":"-7.9901439","longitude":"112.6271598","created_at":"2019-01-07 03:45:39","updated_at":"2019-01-07 04:21:04","deleted_at":null},{"id":24,"name":"SMK Negeri 5","address":"Jl. Ikan Piranha Atas Telp. (0341) 478195","category_id":1,"level_id":3,"latitude":"-7.929387","longitude":"112.635788","created_at":"2019-01-07 04:26:22","updated_at":"2019-01-07 04:26:22","deleted_at":null},{"id":25,"name":"SMK Negeri 6","address":"Jl. Ki Ageng Gribig 27 Telp. (0341) 722216","category_id":1,"level_id":3,"latitude":"-7.9751294","longitude":"112.6716865","created_at":"2019-01-07 04:31:16","updated_at":"2019-01-07 04:31:16","deleted_at":null},{"id":26,"name":"SMK Negeri 7","address":"Jl. Belitung 1 Telp. (0341) 324960","category_id":1,"level_id":3,"latitude":"-8.0258359","longitude":"112.6221781","created_at":"2019-01-07 04:33:23","updated_at":"2019-01-07 04:33:23","deleted_at":null},{"id":27,"name":"SMK Negeri 8","address":"Jl. Teluk Pacitan Telp. (0341) 490441","category_id":1,"level_id":3,"latitude":"-7.9362376","longitude":"112.6618154","created_at":"2019-01-07 04:38:05","updated_at":"2019-01-07 04:38:05","deleted_at":null},{"id":28,"name":"SMK Negeri 9","address":"Jl. Villa Elatri Gunung Buring Telp. (0341) 727998","category_id":1,"level_id":3,"latitude":"-7.9817523","longitude":"112.6871595","created_at":"2019-01-07 05:09:19","updated_at":"2019-01-07 05:09:19","deleted_at":null},{"id":29,"name":"SMK Negeri 10","address":"Jl. Tlogowaru","category_id":1,"level_id":3,"latitude":"-8.0342484","longitude":"112.6468441","created_at":"2019-01-07 05:16:08","updated_at":"2019-01-07 05:16:08","deleted_at":null},{"id":30,"name":"SMK Negeri 11","address":"Jl. Pelabuhan Bkahuni 1 Telp. (0341) 836330","category_id":1,"level_id":3,"latitude":"-8.0065511","longitude":"112.6103903","created_at":"2019-01-07 05:18:14","updated_at":"2019-01-07 05:18:14","deleted_at":null},{"id":31,"name":"SMK Negeri 12","address":"Jl. Pahlawan Telp. (0341) 400844","category_id":1,"level_id":3,"latitude":"-7.9250831","longitude":"112.6589967","created_at":"2019-01-07 05:20:48","updated_at":"2019-01-07 05:20:48","deleted_at":null},{"id":32,"name":"SMPN 1 Malang","address":"Jl. Lawu 12 Malang  Telp. 0341-325206","category_id":1,"level_id":2,"latitude":"-7.971184","longitude":"112.623806","created_at":"2019-01-08 01:04:57","updated_at":"2019-01-08 01:04:57","deleted_at":null},{"id":33,"name":"SMPN 2 Malang","address":"Jl. Prof. Muhammad Yamin 60 Malang  Telp. 0341-325508","category_id":1,"level_id":2,"latitude":"-7.990247","longitude":"112.630877","created_at":"2019-01-08 01:13:20","updated_at":"2019-01-08 01:13:20","deleted_at":null},{"id":34,"name":"SMPN 3 Malang","address":"Jl. Dr. Cipto 20 Malang  Telp. 0341-362612","category_id":1,"level_id":2,"latitude":"-7.969084","longitude":"112.635549","created_at":"2019-01-08 08:45:18","updated_at":"2019-01-08 08:45:18","deleted_at":null},{"id":35,"name":"SMPN 4 Malang","address":"Jl. Veteran 37 Malang  Telp. 0341-551289","category_id":1,"level_id":2,"latitude":"-7.957838","longitude":"112.616047","created_at":"2019-01-08 08:47:06","updated_at":"2019-01-08 08:47:06","deleted_at":null},{"id":36,"name":"SMPN 5 Malang","address":"Jl. WR Supratman 12 Malang  Telp. 0341-482713","category_id":1,"level_id":2,"latitude":"-7.966534","longitude":"112.638411","created_at":"2019-01-08 08:47:54","updated_at":"2019-01-08 08:47:54","deleted_at":null},{"id":37,"name":"SMPN 6 Malang","address":"Jl. Kawi 15A Malang  Telp. 0341-364710","category_id":1,"level_id":2,"latitude":"-7.979505","longitude":"112.624685","created_at":"2019-01-08 08:48:55","updated_at":"2019-01-08 08:48:55","deleted_at":null},{"id":39,"name":"SMP Negeri 7","address":"Jl. Lembayung Bumiayu Malang Telp. (0341) 752032","category_id":1,"level_id":2,"latitude":"-8.003719","longitude":"112.636648","created_at":"2019-01-08 09:03:36","updated_at":"2019-01-08 09:48:57","deleted_at":null},{"id":40,"name":"SMP Negeri 8","address":"Jl. Arjuno No. 19 Malang Telp. (0341) 325506","category_id":1,"level_id":2,"latitude":"-7.976884","longitude":"112.627334","created_at":"2019-01-08 09:05:30","updated_at":"2019-01-08 09:50:51","deleted_at":null},{"id":41,"name":"SMP Negeri 9","address":"Jl. Prof Yamin VI Telp. (0341) 364842","category_id":1,"level_id":2,"latitude":"-7.9896033","longitude":"112.6308553","created_at":"2019-01-08 09:14:30","updated_at":"2019-01-08 09:52:19","deleted_at":null},{"id":42,"name":"SMP Negeri 10","address":"Jl. Mayjend Sungkono No. 57 Telp. (0341) 752035","category_id":1,"level_id":2,"latitude":"-8.010094","longitude":"112.643825","created_at":"2019-01-08 09:17:52","updated_at":"2019-01-08 09:56:43","deleted_at":null},{"id":43,"name":"SMP Negeri 11","address":"Jl Ikan Piranha Atas 185 Telp. (0341) 494086","category_id":1,"level_id":2,"latitude":"-7.932598","longitude":"112.637649","created_at":"2019-01-08 09:19:51","updated_at":"2019-01-08 09:59:56","deleted_at":null},{"id":44,"name":"SMP Negeri 12","address":"Jl. S. Supriyadi 49 Telp. (0341) 801169","category_id":1,"level_id":2,"latitude":"-8.006208","longitude":"112.621052","created_at":"2019-01-08 09:22:10","updated_at":"2019-01-08 09:22:10","deleted_at":null},{"id":45,"name":"SMP Negeri 13","address":"Jl. Sunan AmpelTelp. (0341) 552864","category_id":1,"level_id":2,"latitude":"-7.948563","longitude":"112.607333","created_at":"2019-01-08 09:25:05","updated_at":"2019-01-08 09:25:05","deleted_at":null},{"id":46,"name":"SMP Negeri 14","address":"Jl.Teluk Bayur 02 Malang Telp. (0341) 474458","category_id":1,"level_id":2,"latitude":"-7.943338","longitude":"112.662505","created_at":"2019-01-08 09:26:18","updated_at":"2019-01-08 09:26:18","deleted_at":null},{"id":47,"name":"SMP Negeri 15","address":"Jl. Bukit Dieng T\/8 Telp. (0341) 571715","category_id":1,"level_id":2,"latitude":"-7.975920","longitude":"112.604461","created_at":"2019-01-08 09:27:37","updated_at":"2019-01-08 09:27:37","deleted_at":null},{"id":48,"name":"SMP Negeri 16","address":"Jl. Teluk Pacitan Arjosari Telp. (0341) 490441","category_id":1,"level_id":2,"latitude":"-7.93447","longitude":"112.6621476","created_at":"2019-01-08 09:31:57","updated_at":"2019-01-08 09:31:57","deleted_at":null},{"id":49,"name":"SMP Negeri 17","address":"Jl. Pel. Tanjung Priok 170 Telp. (0341) 802477","category_id":1,"level_id":2,"latitude":"-8.006368","longitude":"112.603676","created_at":"2019-01-08 09:34:04","updated_at":"2019-01-08 09:34:04","deleted_at":null},{"id":50,"name":"SMP Negeri 18","address":"Jl. Soekarno-Hatta A-394 Malang Telp. (0341) 472418","category_id":1,"level_id":2,"latitude":"-7.939256","longitude":"112.619535","created_at":"2019-01-08 09:35:29","updated_at":"2019-01-08 09:35:29","deleted_at":null},{"id":51,"name":"SMP Negeri 19","address":"Jl. Belitung No. 1 Telp. (0341) 324960","category_id":1,"level_id":2,"latitude":"-7.993664","longitude":"112.625140","created_at":"2019-01-08 09:37:06","updated_at":"2019-01-08 09:37:06","deleted_at":null},{"id":52,"name":"SMP Negeri 20","address":"Jl. R T Suryo 38 Telp. (0341) 491806","category_id":1,"level_id":2,"latitude":"-7.963412","longitude":"112.640795","created_at":"2019-01-08 09:38:25","updated_at":"2019-01-08 09:38:25","deleted_at":null},{"id":53,"name":"SMP Negeri 21","address":"Jl. Danau Tigi MalangTelp. (0341) 718066","category_id":1,"level_id":2,"latitude":"-7.973936","longitude":"112.664698","created_at":"2019-01-08 09:39:30","updated_at":"2019-01-08 09:39:30","deleted_at":null},{"id":54,"name":"SMP Negeri 22","address":"Jl. Eltari Villa Gunung Buring Telp. (0341) 717905","category_id":1,"level_id":2,"latitude":"-7.998895","longitude":"112.680354","created_at":"2019-01-08 09:40:58","updated_at":"2019-01-08 09:40:58","deleted_at":null},{"id":55,"name":"SMP Negeri 23","address":"Jl. Raya Tlogowaru Telp. (0341) 7558669","category_id":1,"level_id":2,"latitude":"-8.034629","longitude":"112.647348","created_at":"2019-01-08 09:43:16","updated_at":"2019-01-08 09:43:16","deleted_at":null},{"id":56,"name":"SMP Negeri 24","address":"Jl. Laksda Adi Sucipto Gg Makam Telp. (0341) 484260","category_id":1,"level_id":2,"latitude":"-7.953689","longitude":"112.661149","created_at":"2019-01-08 09:46:58","updated_at":"2019-01-08 09:46:58","deleted_at":null},{"id":57,"name":"SDN Purwodadi 1","address":"Jl. Ahmad Yani 165A Malang","category_id":1,"level_id":1,"latitude":"-7.932725","longitude":"112.646802","created_at":"2019-01-08 13:19:36","updated_at":"2019-01-08 13:19:36","deleted_at":null},{"id":58,"name":"SDN Purwodadi 2","address":"Jl. Plaosan Barat 57 Malang","category_id":1,"level_id":1,"latitude":"-7.938277","longitude":"112.648608","created_at":"2019-01-08 13:24:09","updated_at":"2019-01-08 13:24:09","deleted_at":null},{"id":59,"name":"SDN Purwantoro 1","address":"Jl. Letjen S. Parman 67 Malang","category_id":1,"level_id":1,"latitude":"-7.951077","longitude":"112.639037","created_at":"2019-01-08 13:31:14","updated_at":"2019-01-08 13:31:14","deleted_at":null},{"id":60,"name":"SDN Purwantoro 2","address":"Jl. Cipunegara 58 Malang","category_id":1,"level_id":1,"latitude":"-7.955657","longitude":"112.640894","created_at":"2019-01-08 13:32:20","updated_at":"2019-01-08 14:13:30","deleted_at":null},{"id":61,"name":"SDN Blimbing 1","address":"Jl. Laksda Adi Sucipto 77 Malang","category_id":1,"level_id":1,"latitude":"-7.942326","longitude":"112.645999","created_at":"2019-01-08 13:33:11","updated_at":"2019-01-08 13:33:11","deleted_at":null},{"id":62,"name":"SDN Blimbing 2","address":"Jl. Laksda Adi Sucipto Gg. SD No. 12 Malang","category_id":1,"level_id":1,"latitude":"-7.942013","longitude":"112.646529","created_at":"2019-01-08 13:34:45","updated_at":"2019-01-08 13:34:45","deleted_at":null},{"id":63,"name":"SDN Blimbing 3","address":"Jl. Candi Kidal No. 3 Malang","category_id":1,"level_id":1,"latitude":"-7.943421","longitude":"112.640701","created_at":"2019-01-08 13:37:36","updated_at":"2019-01-08 13:37:36","deleted_at":null},{"id":64,"name":"SDN Bunulrejo 1","address":"Jl. Hamid Rusdi Timur 455A Malang","category_id":1,"level_id":1,"latitude":"-7.973823","longitude":"112.649602","created_at":"2019-01-08 13:39:24","updated_at":"2019-01-08 13:39:24","deleted_at":null},{"id":65,"name":"SDN Bunulrejo 2","address":"Jl. Bedadung 3 Malang","category_id":1,"level_id":1,"latitude":"-7.964682","longitude":"112.642284","created_at":"2019-01-08 13:40:22","updated_at":"2019-01-08 13:40:22","deleted_at":null},{"id":66,"name":"SDN Lowokwaru 1","address":"Jl. Letjen Sutoyo V\/33 Malang","category_id":1,"level_id":1,"latitude":"-7.957053","longitude":"112.635988","created_at":"2019-01-08 13:41:37","updated_at":"2019-01-08 13:41:37","deleted_at":null},{"id":67,"name":"SDN Lowokwaru 2","address":"Jl. Tretes 3 Malang","category_id":1,"level_id":1,"latitude":"-7.962175","longitude":"112.632508","created_at":"2019-01-08 13:43:11","updated_at":"2019-01-08 13:43:11","deleted_at":null},{"id":68,"name":"SDN Mojolangu 1","address":"Jl. Sudimoro 15 Malang","category_id":1,"level_id":1,"latitude":"-7.938332","longitude":"112.631393","created_at":"2019-01-08 13:44:55","updated_at":"2019-01-08 13:44:55","deleted_at":null},{"id":69,"name":"SDN Mojolangu 2","address":"Jl. Candi Panggung 52 Malang","category_id":1,"level_id":1,"latitude":"-7.936709","longitude":"112.619985","created_at":"2019-01-08 13:45:45","updated_at":"2019-01-08 13:45:45","deleted_at":null},{"id":70,"name":"SDN Sumbersari 1","address":"Jl. Bendungan Sigura-gura Malang","category_id":1,"level_id":1,"latitude":"-7.956919","longitude":"112.610963","created_at":"2019-01-08 13:47:43","updated_at":"2019-01-08 13:47:43","deleted_at":null},{"id":71,"name":"SDN Kiduldalem 1","address":"Jl. Majapahit, Kiduldalem, Klojen, Kota Malang, Jawa Timur 65119","category_id":1,"level_id":1,"latitude":"-7.978811","longitude":"112.633005","created_at":"2019-01-08 13:49:52","updated_at":"2019-01-08 13:49:52","deleted_at":null},{"id":72,"name":"SDN Kiduldalem 2","address":"Jl. Embong Brantas Gg. SD No. 26 Malang","category_id":1,"level_id":1,"latitude":"-7.979908","longitude":"112.635040","created_at":"2019-01-08 13:50:52","updated_at":"2019-01-08 13:50:52","deleted_at":null},{"id":73,"name":"SDN Rampal Celaket 1","address":"Jl. Tretes Selatan No.26, Rampal Celaket, Klojen","category_id":1,"level_id":1,"latitude":"-7.963384","longitude":"112.631928","created_at":"2019-01-08 13:52:01","updated_at":"2019-01-08 14:09:26","deleted_at":null},{"id":74,"name":"SDN Rampal Celaket 2","address":"Jl. W.R. Supratman No.11 A, Rampal Celaket, Klojen","category_id":1,"level_id":1,"latitude":"-7.965856","longitude":"112.635894","created_at":"2019-01-08 13:53:02","updated_at":"2019-01-08 14:09:35","deleted_at":null},{"id":75,"name":"SDN Sawojajar 1","address":"Jl. Raya Sawojajar 49 Malang","category_id":1,"level_id":1,"latitude":"-7.973352","longitude":"112.655711","created_at":"2019-01-08 13:53:50","updated_at":"2019-01-08 13:53:50","deleted_at":null},{"id":76,"name":"SDN Sawojajar 4","address":"Jl. Simpang Danau Ranugrati 57A Malang","category_id":1,"level_id":1,"latitude":"-7.983468","longitude":"112.651287","created_at":"2019-01-08 13:57:16","updated_at":"2019-01-08 13:57:16","deleted_at":null},{"id":77,"name":"SDN Arjowinangun 1","address":"Jl. Tutut Gg. III Malang","category_id":1,"level_id":1,"latitude":"-8.041615","longitude":"112.643340","created_at":"2019-01-08 13:58:31","updated_at":"2019-01-08 13:58:31","deleted_at":null},{"id":78,"name":"SDN Arjowinangun 2","address":"Jl. Raya Arjowinangun No.7, Arjowinangun, Kedungkandang","category_id":1,"level_id":1,"latitude":"-8.036396","longitude":"112.635617","created_at":"2019-01-08 13:59:20","updated_at":"2019-01-08 14:07:21","deleted_at":null},{"id":79,"name":"SDN Kebonsari 1","address":"Jl. Satsui Tubun 178 Malang","category_id":1,"level_id":1,"latitude":"-8.021913","longitude":"112.623269","created_at":"2019-01-08 14:04:13","updated_at":"2019-01-08 14:04:13","deleted_at":null},{"id":80,"name":"SDN Kebonsari 2","address":"Jl. S Supriyadi 7 Malang","category_id":1,"level_id":1,"latitude":"-8.018941","longitude":"112.619129","created_at":"2019-01-08 14:06:34","updated_at":"2019-01-08 14:06:34","deleted_at":null},{"id":81,"name":"SD Model Malang","address":"Jl. Raya Tlogowaru No.3, Tlogowaru, Kedungkandang","category_id":1,"level_id":1,"latitude":"-8.033410","longitude":"112.647325","created_at":"2019-01-08 14:09:15","updated_at":"2019-01-08 14:09:15","deleted_at":null},{"id":82,"name":"TK Muslimat NU 15","address":"Jalan Brigjen Slamet Riadi 6 Nomor 714, Oro-oro Dowo, Klojen","category_id":2,"level_id":4,"latitude":"-7.970744","longitude":"112.628372","created_at":"2019-01-14 07:50:59","updated_at":"2019-01-14 07:50:59","deleted_at":null},{"id":83,"name":"TK Muslimat NU 38","address":"Jl. Pahlawan Trip No.5, Oro-oro Dowo, Klojen","category_id":2,"level_id":4,"latitude":"-7.968318","longitude":"112.623151","created_at":"2019-01-14 07:51:50","updated_at":"2019-01-14 07:51:50","deleted_at":null},{"id":84,"name":"TK Muslimat NU 17 Nur Rokhmat","address":"Jl. Gading No.54, Gading Kasri, Klojen","category_id":2,"level_id":4,"latitude":"-7.970347","longitude":"112.614682","created_at":"2019-01-14 07:52:51","updated_at":"2019-01-14 07:52:51","deleted_at":null},{"id":85,"name":"TK. Kartika IV-79","address":"Jl. Kesatrian No.74, Kesatrian, Blimbing","category_id":2,"level_id":4,"latitude":"-7.975457","longitude":"112.644429","created_at":"2019-01-14 08:25:06","updated_at":"2019-01-14 08:25:06","deleted_at":null},{"id":86,"name":"TK. Kartika IV-80","address":"Jl. Kesatrian No.34, Bunulrejo, Blimbing","category_id":2,"level_id":4,"latitude":"-7.973819","longitude":"112.648397","created_at":"2019-01-14 08:26:21","updated_at":"2019-01-14 08:26:21","deleted_at":null},{"id":87,"name":"Tk Kartika V-77","address":"JL. Narotama Barat, No. 5-A, 65121, Kesatrian, Blimbing","category_id":2,"level_id":4,"latitude":"-7.9776239","longitude":"112.6397445","created_at":"2019-01-14 08:27:56","updated_at":"2019-01-14 08:27:56","deleted_at":null},{"id":88,"name":"TK. Aisyiyah Bustanul Athfal","address":"Jalan Raya Tutut No.7, Arjowinangun, Kedungkandang, Malang City, East Java 65172","category_id":2,"level_id":4,"latitude":"-8.039107","longitude":"112.644691","created_at":"2019-01-14 08:29:32","updated_at":"2019-01-14 08:29:32","deleted_at":null},{"id":89,"name":"TK Al Ghoniya","address":"Jl. Nusa Indah No.19, Lowokwaru, Kec. Lowokwaru, Kota Malang, Jawa Timur 65141","category_id":2,"level_id":4,"latitude":"-7.952421","longitude":"112.629034","created_at":"2019-01-14 08:33:39","updated_at":"2019-01-14 08:33:39","deleted_at":null},{"id":90,"name":"TK Alam Ar-Rayyan","address":"Jl. Cengger Ayam, Tulusrejo, Kec. Lowokwaru, Kota Malang, Jawa Timur 65151","category_id":2,"level_id":4,"latitude":"-7.947074","longitude":"112.629282","created_at":"2019-01-14 08:34:45","updated_at":"2019-01-14 08:34:45","deleted_at":null},{"id":91,"name":"KB - TK. Aisyiyah 23","address":"Jalan Raya Kepuh lX 2, Bandungrejosari, Sukun, Bandungrejosari, Sukun, Kota Malang, Jawa Timur 65148","category_id":2,"level_id":4,"latitude":"-8.013471","longitude":"112.620656","created_at":"2019-01-14 08:36:24","updated_at":"2019-01-14 08:36:24","deleted_at":null},{"id":92,"name":"TKA\/TKQ JM. Qira'atul Qur'an","address":"JL. Kol. Sugiono, Gang II, No.14, Sukun, Gadang, Malang, Kota Malang, Jawa Timur 65148","category_id":2,"level_id":4,"latitude":"-8.018503","longitude":"112.628101","created_at":"2019-01-14 08:40:33","updated_at":"2019-01-14 08:42:44","deleted_at":null},{"id":93,"name":"Al-Ya'lu Kindergarten","address":"Jl. Teluk Mandar No.55, Arjosari, Blimbing, Malang City, East Java 65126","category_id":2,"level_id":4,"latitude":"-7.932642","longitude":"112.659724","created_at":"2019-01-14 08:52:41","updated_at":"2019-01-14 08:52:41","deleted_at":null},{"id":94,"name":"UIN Maulana Malik Ibrahim","address":"Jalan Gajayana No.50, Dinoyo, Kecamatan Lowokwaru, Dinoyo, Kec. Lowokwaru, Kota Malang, Jawa Timur 65144","category_id":1,"level_id":5,"latitude":"-7.946272","longitude":"112.606942","created_at":"2019-01-14 09:37:42","updated_at":"2019-01-14 09:37:42","deleted_at":null},{"id":95,"name":"Universitas Negeri Malang (UM)","address":"Jl. Semarang 5  Malang  Telp. 0341-551312","category_id":1,"level_id":5,"latitude":"-7.954094","longitude":"112.616802","created_at":"2019-01-14 09:41:03","updated_at":"2019-01-14 09:41:03","deleted_at":null},{"id":96,"name":"Universitas Widyagama (UWG)","address":"Jl. Borobudur 35 Malang 65128","category_id":2,"level_id":5,"latitude":"-7.939067","longitude":"112.635977","created_at":"2019-01-14 09:41:50","updated_at":"2019-01-14 09:41:50","deleted_at":null},{"id":97,"name":"Universitas Brawijaya (UB)","address":"Jl. Veteran 169  Malang  Telp. 0341-551611","category_id":1,"level_id":5,"latitude":"-7.945550","longitude":"112.613342","created_at":"2019-01-14 09:42:53","updated_at":"2019-01-14 09:42:53","deleted_at":null},{"id":98,"name":"Universitas Ma Chung","address":"Villa Puncak Tidar N.01 Malang 65151","category_id":2,"level_id":5,"latitude":"-7.957058","longitude":"112.589080","created_at":"2019-01-14 09:43:38","updated_at":"2019-01-14 09:43:38","deleted_at":null},{"id":99,"name":"Universitas Muhammadiyah Malang (UMM)","address":"Jl. Raya Tlogomas 246  Malang  Telp. 0341-464318-19","category_id":1,"level_id":5,"latitude":"-7.956814","longitude":"112.624700","created_at":"2019-01-14 09:44:48","updated_at":"2019-01-14 09:44:48","deleted_at":null},{"id":100,"name":"Universitas Kristen Cipta Wacana (UKCW)","address":"Jl. Semeru 42 Malang 65112","category_id":2,"level_id":5,"latitude":"-7.956804","longitude":"112.648954","created_at":"2019-01-14 09:44:49","updated_at":"2019-01-14 09:44:49","deleted_at":null},{"id":101,"name":"Universitas Merdeka Malang (Unmer)","address":"Jl. Terusan Raya Dieng 62-64 Malang Telp. 0341-568395","category_id":2,"level_id":5,"latitude":"-7.964639","longitude":"112.609545","created_at":"2019-01-14 09:45:40","updated_at":"2019-01-14 09:45:40","deleted_at":null},{"id":102,"name":"Universitas Katolik Widya Karya","address":"Jl. Bondowoso 42 Malang","category_id":2,"level_id":5,"latitude":"-7.968358","longitude":"112.618040","created_at":"2019-01-14 09:45:54","updated_at":"2019-01-14 09:45:54","deleted_at":null},{"id":103,"name":"Universitas Tribhuwana Tunggadewi (Unitri)","address":"Jl. Telaga Warna Blok C, Tlogomas, Malang","category_id":2,"level_id":5,"latitude":"-7.932386","longitude":"112.600159","created_at":"2019-01-14 09:47:19","updated_at":"2019-01-14 09:47:19","deleted_at":null},{"id":104,"name":"UPBJJ Universitas Terbuka Malang","address":"Jl. Mayjen Sungkono 9  Malang Telp. 0341-751600","category_id":1,"level_id":5,"latitude":"-8.014647","longitude":"112.640437","created_at":"2019-01-14 09:47:20","updated_at":"2019-01-14 09:47:20","deleted_at":null},{"id":105,"name":"Universitas Gajayana (Uniga)","address":"Jl. Mertojoyo  Blok L, Malang Telp. 0341-562411","category_id":2,"level_id":5,"latitude":"-7.933689","longitude":"112.601611","created_at":"2019-01-14 09:48:07","updated_at":"2019-01-14 09:48:07","deleted_at":null},{"id":106,"name":"IKIP Budi Utomo","address":"Jl. Simpang Arjuna 14B Malang","category_id":2,"level_id":5,"latitude":"-7.977448","longitude":"112.626547","created_at":"2019-01-14 09:48:17","updated_at":"2019-01-14 09:48:17","deleted_at":null},{"id":107,"name":"Institut Pertanian Malang (IPM)","address":"Jl. Soekarno-Hatta, Malang","category_id":2,"level_id":5,"latitude":"-7.939682","longitude":"112.620432","created_at":"2019-01-14 09:49:15","updated_at":"2019-01-14 09:49:15","deleted_at":null},{"id":108,"name":"Universitas Islam Malang (Unisma)","address":"Jl. Mayjen Haryono 193  Malang Telp. 0341-551932","category_id":2,"level_id":5,"latitude":"-7.928928","longitude":"112.606103","created_at":"2019-01-14 09:49:22","updated_at":"2019-01-14 09:49:22","deleted_at":null},{"id":109,"name":"Universitas Kanjuruhan Malang (Unikama)","address":"Jl. Soedancho Supriadi No.48 Malang Telp. 0341-801488","category_id":2,"level_id":5,"latitude":"-7.998660","longitude":"112.621072","created_at":"2019-01-14 09:50:06","updated_at":"2019-01-14 09:50:06","deleted_at":null},{"id":110,"name":"Universitas Wisnuwardhana (Unidha)","address":"Jl. Danau Sentani 99  Malang Telp. 0341-713604","category_id":2,"level_id":5,"latitude":"-7.962361","longitude":"112.667576","created_at":"2019-01-14 09:50:59","updated_at":"2019-01-14 09:50:59","deleted_at":null},{"id":111,"name":"Institut Sains dan Teknologi Palapa (ISTP)","address":"Jl. Batu Permata 1 Malang","category_id":2,"level_id":5,"latitude":"-7.904675","longitude":"112.568322","created_at":"2019-01-14 09:51:40","updated_at":"2019-01-14 09:51:40","deleted_at":null},{"id":112,"name":"Institut Teknologi Nasional (ITN)","address":"Jl. Bendungan Siguragura 2 Malang","category_id":2,"level_id":5,"latitude":"-7.957515","longitude":"112.612205","created_at":"2019-01-14 09:52:48","updated_at":"2019-01-14 09:52:48","deleted_at":null},{"id":113,"name":"Politeknik Kota Malang (Poltekom)","address":"Komplek Pendidikan Internasional Jl. Raya Tlogowaru 3 Malang","category_id":2,"level_id":5,"latitude":"-8.033521","longitude":"112.648916","created_at":"2019-01-14 09:54:09","updated_at":"2019-01-14 09:54:09","deleted_at":null}]
